[
  {
    "line": "EW",
    "station_number": 7,
    "station_name": "EUNOS MRT STATION",
    "latitude": 1.3197789515536371,
    "longitude": 103.90325246673828
  },
  {
    "line": "EW",
    "station_number": 25,
    "station_name": "CHINESE GARDEN MRT STATION",
    "latitude": 1.3423528208747444,
    "longitude": 103.73259673807337
  },
  {
    "line": "NS",
    "station_number": 14,
    "station_name": "KHATIB MRT STATION",
    "latitude": 1.4173833701535468,
    "longitude": 103.83297990773832
  },
  {
    "line": "NS",
    "station_number": 7,
    "station_name": "KRANJI MRT STATION",
    "latitude": 1.4251776987704483,
    "longitude": 103.76216541090021
  },
  {
    "line": "EW",
    "station_number": 18,
    "station_name": "REDHILL MRT STATION",
    "latitude": 1.2895627264024532,
    "longitude": 103.81681667014902
  },
  {
    "line": "NS",
    "station_number": 5,
    "station_name": "YEW TEE MRT STATION",
    "latitude": 1.3975350177934125,
    "longitude": 103.74740511413793
  },
  {
    "line": "EW",
    "station_number": 28,
    "station_name": "PIONEER MRT STATION",
    "latitude": 1.3375868822047494,
    "longitude": 103.69732151293607
  },
  {
    "line": "EW",
    "station_number": 20,
    "station_name": "COMMONWEALTH MRT STATION",
    "latitude": 1.3024387353271702,
    "longitude": 103.79830451562897
  },
  {
    "line": "EW",
    "station_number": 8,
    "station_name": "PAYA LEBAR MRT STATION",
    "latitude": 1.318112082295278,
    "longitude": 103.8930603552516
  },
  {
    "line": "CC",
    "station_number": 9,
    "station_name": "PAYA LEBAR MRT STATION",
    "latitude": 1.318112082295278,
    "longitude": 103.8930603552516
  },
  {
    "line": "EW",
    "station_number": 3,
    "station_name": "SIMEI MRT STATION",
    "latitude": 1.343202894930727,
    "longitude": 103.95337169417571
  },
  {
    "line": "EW",
    "station_number": 2,
    "station_name": "TAMPINES MRT STATION",
    "latitude": 1.3533013563424343,
    "longitude": 103.94514868864901
  },
  {
    "line": "DT",
    "station_number": 32,
    "station_name": "TAMPINES MRT STATION",
    "latitude": 1.3533013563424343,
    "longitude": 103.94514868864901
  },
  {
    "line": "NS",
    "station_number": 10,
    "station_name": "ADMIRALTY MRT STATION",
    "latitude": 1.4405850010854109,
    "longitude": 103.80098800081232
  },
  {
    "line": "NS",
    "station_number": 13,
    "station_name": "YISHUN MRT STATION",
    "latitude": 1.4294430808108003,
    "longitude": 103.8350050461946
  },
  {
    "line": "EW",
    "station_number": 1,
    "station_name": "PASIR RIS MRT STATION",
    "latitude": 1.37298377357949,
    "longitude": 103.94926811824541
  },
  {
    "line": "EW",
    "station_number": 23,
    "station_name": "CLEMENTI MRT STATION",
    "latitude": 1.3149544924235943,
    "longitude": 103.76529887432638
  },
  {
    "line": "EW",
    "station_number": 9,
    "station_name": "ALJUNIED MRT STATION",
    "latitude": 1.316432611657838,
    "longitude": 103.88290604466043
  },
  {
    "line": "NS",
    "station_number": 16,
    "station_name": "ANG MO KIO MRT STATION",
    "latitude": 1.3693473037885635,
    "longitude": 103.84993299388984
  },
  {
    "line": "DT",
    "station_number": 35,
    "station_name": "EXPO MRT STATION",
    "latitude": 1.3345497778378117,
    "longitude": 103.96154821070795
  },
  {
    "line": "NS",
    "station_number": 4,
    "station_name": "CHOA CHU KANG MRT STATION",
    "latitude": 1.3853616928288095,
    "longitude": 103.74434094618154
  },
  {
    "line": "EW",
    "station_number": 24,
    "station_name": "JURONG EAST MRT STATION",
    "latitude": 1.3331526198940653,
    "longitude": 103.7422865440047
  },
  {
    "line": "NS",
    "station_number": 1,
    "station_name": "JURONG EAST MRT STATION",
    "latitude": 1.3331526198940653,
    "longitude": 103.7422865440047
  },
  {
    "line": "EW",
    "station_number": 19,
    "station_name": "QUEENSTOWN MRT STATION",
    "latitude": 1.2948609327949876,
    "longitude": 103.8058843
  },
  {
    "line": "EW",
    "station_number": 33,
    "station_name": "TUAS LINK MRT STATION",
    "latitude": 1.340463765648207,
    "longitude": 103.63687867834884
  },
  {
    "line": "EW",
    "station_number": 30,
    "station_name": "GUL CIRCLE MRT STATION",
    "latitude": 1.3195052149382065,
    "longitude": 103.66055295590799
  },
  {
    "line": "NS",
    "station_number": 9,
    "station_name": "WOODLANDS MRT STATION",
    "latitude": 1.4368751282107552,
    "longitude": 103.78648513490744
  },
  {
    "line": "TE",
    "station_number": 2,
    "station_name": "WOODLANDS MRT STATION",
    "latitude": 1.4368751282107552,
    "longitude": 103.78648513490744
  },
  {
    "line": "EW",
    "station_number": 31,
    "station_name": "TUAS CRESCENT MRT STATION",
    "latitude": 1.3210265532422654,
    "longitude": 103.64907547830892
  },
  {
    "line": "EW",
    "station_number": 10,
    "station_name": "KALLANG MRT STATION",
    "latitude": 1.3114889096421625,
    "longitude": 103.87138654135926
  },
  {
    "line": "EW",
    "station_number": 32,
    "station_name": "TUAS WEST ROAD MRT STATION",
    "latitude": 1.3299890890491357,
    "longitude": 103.63961405603037
  },
  {
    "line": "EW",
    "station_number": 21,
    "station_name": "BUONA VISTA MRT STATION",
    "latitude": 1.307183466547333,
    "longitude": 103.79019153517372
  },
  {
    "line": "CC",
    "station_number": 22,
    "station_name": "BUONA VISTA MRT STATION",
    "latitude": 1.307183466547333,
    "longitude": 103.79019153517372
  },
  {
    "line": "EW",
    "station_number": 22,
    "station_name": "DOVER MRT STATION",
    "latitude": 1.3114052929253075,
    "longitude": 103.77863784163793
  },
  {
    "line": "NS",
    "station_number": 11,
    "station_name": "SEMBAWANG MRT STATION",
    "latitude": 1.4490508212272943,
    "longitude": 103.82004614054829
  },
  {
    "line": "EW",
    "station_number": 6,
    "station_name": "KEMBANGAN MRT STATION",
    "latitude": 1.3210382488510848,
    "longitude": 103.9129493883634
  },
  {
    "line": "NS",
    "station_number": 2,
    "station_name": "BUKIT BATOK MRT STATION",
    "latitude": 1.3490341085766733,
    "longitude": 103.74956676385231
  },
  {
    "line": "EW",
    "station_number": 27,
    "station_name": "BOON LAY MRT STATION",
    "latitude": 1.3386040545032738,
    "longitude": 103.70606462259597
  },
  {
    "line": "NS",
    "station_number": 3,
    "station_name": "BUKIT GOMBAK MRT STATION",
    "latitude": 1.3587618572614455,
    "longitude": 103.75189350208203
  },
  {
    "line": "NS",
    "station_number": 8,
    "station_name": "MARSILING MRT STATION",
    "latitude": 1.4325144206356422,
    "longitude": 103.77407146126207
  },
  {
    "line": "EW",
    "station_number": 5,
    "station_name": "BEDOK MRT STATION",
    "latitude": 1.3239799688877467,
    "longitude": 103.92998449462056
  },
  {
    "line": "EW",
    "station_number": 29,
    "station_name": "JOO KOON MRT STATION",
    "latitude": 1.327717173,
    "longitude": 103.67837514285053
  },
  {
    "line": "EW",
    "station_number": 26,
    "station_name": "LAKESIDE MRT STATION",
    "latitude": 1.3442592493946972,
    "longitude": 103.72094926847875
  },
  {
    "line": "EW",
    "station_number": 4,
    "station_name": "TANAH MERAH MRT STATION",
    "latitude": 1.3271871345383557,
    "longitude": 103.94634646062272
  },
  {
    "line": "NS",
    "station_number": 15,
    "station_name": "YIO CHU KANG MRT STATION",
    "latitude": 1.3817560461130038,
    "longitude": 103.84494728975423
  },
  {
    "line": "PE",
    "station_number": 6,
    "station_name": "OASIS LRT STATION",
    "latitude": 1.402286677493708,
    "longitude": 103.91272735563076
  },
  {
    "line": "PW",
    "station_number": 1,
    "station_name": "SAM KEE LRT STATION",
    "latitude": 1.409612685086607,
    "longitude": 103.90483155051864
  },
  {
    "line": "SW",
    "station_number": 2,
    "station_name": "FARMWAY LRT STATION",
    "latitude": 1.3971701964580427,
    "longitude": 103.88930481043573
  },
  {
    "line": "SW",
    "station_number": 3,
    "station_name": "KUPANG LRT STATION",
    "latitude": 1.3982128283971755,
    "longitude": 103.88125622197416
  },
  {
    "line": "SW",
    "station_number": 8,
    "station_name": "RENJONG LRT STATION",
    "latitude": 1.3867239215280005,
    "longitude": 103.8905394271551
  },
  {
    "line": "BP",
    "station_number": 6,
    "station_name": "BUKIT PANJANG LRT STATION",
    "latitude": 1.377909897982203,
    "longitude": 103.76301363378538
  },
  {
    "line": "BP",
    "station_number": 10,
    "station_name": "FAJAR LRT STATION",
    "latitude": 1.3845207961752235,
    "longitude": 103.77080858250861
  },
  {
    "line": null,
    "station_number": null,
    "station_name": "PUNGGOL LRT STATION",
    "latitude": 1.4051947013024328,
    "longitude": 103.90241191198473
  },
  {
    "line": "PW",
    "station_number": 4,
    "station_name": "SAMUDERA LRT STATION",
    "latitude": 1.4159017194387675,
    "longitude": 103.90215631639083
  },
  {
    "line": "PW",
    "station_number": 5,
    "station_name": "NIBONG LRT STATION",
    "latitude": 1.4118704584532271,
    "longitude": 103.90031381767317
  },
  {
    "line": "PW",
    "station_number": 7,
    "station_name": "SOO TECK LRT STATION",
    "latitude": 1.4050885848539645,
    "longitude": 103.89720965031741
  },
  {
    "line": "PE",
    "station_number": 5,
    "station_name": "KADALOOR LRT STATION",
    "latitude": 1.3995848527611094,
    "longitude": 103.91648666197331
  },
  {
    "line": "PE",
    "station_number": 3,
    "station_name": "CORAL EDGE LRT STATION",
    "latitude": 1.393909226117486,
    "longitude": 103.9125808548093
  },
  {
    "line": "SW",
    "station_number": 4,
    "station_name": "THANGGAM LRT STATION",
    "latitude": 1.3973181549952225,
    "longitude": 103.87563515645569
  },
  {
    "line": "BP",
    "station_number": 3,
    "station_name": "KEAT HONG LRT STATION",
    "latitude": 1.378602765983026,
    "longitude": 103.74905551939932
  },
  {
    "line": "PE",
    "station_number": 7,
    "station_name": "DAMAI LRT STATION",
    "latitude": 1.4052348361719906,
    "longitude": 103.90860354364429
  },
  {
    "line": "PE",
    "station_number": 1,
    "station_name": "COVE LRT STATION",
    "latitude": 1.3992819850199325,
    "longitude": 103.90596194407641
  },
  {
    "line": "PE",
    "station_number": 4,
    "station_name": "RIVIERA LRT STATION",
    "latitude": 1.3945244957690124,
    "longitude": 103.91616605898767
  },
  {
    "line": "BP",
    "station_number": 13,
    "station_name": "SENJA LRT STATION",
    "latitude": 1.3826922958241612,
    "longitude": 103.76236722595047
  },
  {
    "line": "BP",
    "station_number": 12,
    "station_name": "JELAPANG LRT STATION",
    "latitude": 1.386703025013921,
    "longitude": 103.76450333815882
  },
  {
    "line": "BP",
    "station_number": 7,
    "station_name": "PETIR LRT STATION",
    "latitude": 1.3777503338172217,
    "longitude": 103.766669
  },
  {
    "line": "BP",
    "station_number": 4,
    "station_name": "TECK WHYE LRT STATION",
    "latitude": 1.3766846794439074,
    "longitude": 103.75371223219945
  },
  {
    "line": "BP",
    "station_number": 1,
    "station_name": "CHOA CHU KANG LRT STATION",
    "latitude": 1.3848363599658255,
    "longitude": 103.7445537312411
  },
  {
    "line": "BP",
    "station_number": 2,
    "station_name": "SOUTH VIEW LRT STATION",
    "latitude": 1.380298287217282,
    "longitude": 103.74529180004231
  },
  {
    "line": "SW",
    "station_number": 6,
    "station_name": "LAYAR LRT STATION",
    "latitude": 1.392079838772599,
    "longitude": 103.88002960034964
  },
  {
    "line": "SE",
    "station_number": 4,
    "station_name": "KANGKAR LRT STATION",
    "latitude": 1.3839789018335389,
    "longitude": 103.90217398876578
  },
  {
    "line": "PE",
    "station_number": 2,
    "station_name": "MERIDIAN LRT STATION",
    "latitude": 1.3969120530632737,
    "longitude": 103.90895021696619
  },
  {
    "line": "SW",
    "station_number": 1,
    "station_name": "CHENG LIM LRT STATION",
    "latitude": 1.3962776313358083,
    "longitude": 103.89379718083607
  },
  {
    "line": "PW",
    "station_number": 3,
    "station_name": "PUNGGOL POINT LRT STATION",
    "latitude": 1.4168485204957677,
    "longitude": 103.90665079046617
  },
  {
    "line": "PW",
    "station_number": 6,
    "station_name": "SUMANG LRT STATION",
    "latitude": 1.4084524256476956,
    "longitude": 103.89855845404989
  },
  {
    "line": "SW",
    "station_number": 5,
    "station_name": "FERNVALE LRT STATION",
    "latitude": 1.391885887744102,
    "longitude": 103.87630861136844
  },
  {
    "line": "SW",
    "station_number": 7,
    "station_name": "TONGKANG LRT STATION",
    "latitude": 1.3893479529596946,
    "longitude": 103.88584414990768
  },
  {
    "line": "BP",
    "station_number": 8,
    "station_name": "PENDING LRT STATION",
    "latitude": 1.376142882785048,
    "longitude": 103.77127017861224
  },
  {
    "line": "PW",
    "station_number": 2,
    "station_name": "TECK LEE LRT STATION",
    "latitude": 1.4127708938635477,
    "longitude": 103.90657762270189
  },
  {
    "line": "BP",
    "station_number": 9,
    "station_name": "BANGKIT LRT STATION",
    "latitude": 1.3800178972420925,
    "longitude": 103.77264907257116
  },
  {
    "line": "SE",
    "station_number": 3,
    "station_name": "BAKAU LRT STATION",
    "latitude": 1.3880927037751092,
    "longitude": 103.90543910424007
  },
  {
    "line": "SE",
    "station_number": 2,
    "station_name": "RUMBIA LRT STATION",
    "latitude": 1.391468496838555,
    "longitude": 103.90597359531087
  },
  {
    "line": "SE",
    "station_number": 1,
    "station_name": "COMPASSVALE LRT STATION",
    "latitude": 1.3944930461980638,
    "longitude": 103.90049245062764
  },
  {
    "line": "SE",
    "station_number": 5,
    "station_name": "RANGGUNG LRT STATION",
    "latitude": 1.3838854419159177,
    "longitude": 103.89753716196952
  },
  {
    "line": "BP",
    "station_number": 5,
    "station_name": "PHOENIX LRT STATION",
    "latitude": 1.3786188444529008,
    "longitude": 103.75803409838647
  },
  {
    "line": "BP",
    "station_number": 11,
    "station_name": "SEGAR LRT STATION",
    "latitude": 1.387772130860874,
    "longitude": 103.76959839678025
  },
  {
    "line": null,
    "station_number": null,
    "station_name": "SENGKANG LRT STATION",
    "latitude": 1.3916093638162654,
    "longitude": 103.89544258366438
  },
  {
    "line": "CC",
    "station_number": 2,
    "station_name": "BRAS BASAH MRT STATION",
    "latitude": 1.2968616865276132,
    "longitude": 103.8506673717781
  },
  {
    "line": "CC",
    "station_number": 10,
    "station_name": "MACPHERSON MRT STATION",
    "latitude": 1.326345371661258,
    "longitude": 103.8902870313661
  },
  {
    "line": "DT",
    "station_number": 26,
    "station_name": "MACPHERSON MRT STATION",
    "latitude": 1.326345371661258,
    "longitude": 103.8902870313661
  },
  {
    "line": "EW",
    "station_number": 13,
    "station_name": "CITY HALL MRT STATION",
    "latitude": 1.2929362428460929,
    "longitude": 103.85258589234415
  },
  {
    "line": "NS",
    "station_number": 25,
    "station_name": "CITY HALL MRT STATION",
    "latitude": 1.2929362428460929,
    "longitude": 103.85258589234415
  },
  {
    "line": "DT",
    "station_number": 33,
    "station_name": "TAMPINES EAST MRT STATION",
    "latitude": 1.356191483037002,
    "longitude": 103.95463446292943
  },
  {
    "line": "DT",
    "station_number": 31,
    "station_name": "TAMPINES WEST MRT STATION",
    "latitude": 1.345515305,
    "longitude": 103.93843697135333
  },
  {
    "line": "DT",
    "station_number": 24,
    "station_name": "GEYLANG BAHRU MRT STATION",
    "latitude": 1.3215058380176048,
    "longitude": 103.8719006257064
  },
  {
    "line": "DT",
    "station_number": 23,
    "station_name": "BENDEMEER MRT STATION",
    "latitude": 1.313672232544496,
    "longitude": 103.8629779874744
  },
  {
    "line": "DT",
    "station_number": 21,
    "station_name": "BENCOOLEN MRT STATION",
    "latitude": 1.2988642704173592,
    "longitude": 103.85038425491643
  },
  {
    "line": "NE",
    "station_number": 1,
    "station_name": "HARBOURFRONT MRT STATION",
    "latitude": 1.265472639862096,
    "longitude": 103.82144306908805
  },
  {
    "line": "CC",
    "station_number": 29,
    "station_name": "HARBOURFRONT MRT STATION",
    "latitude": 1.265472639862096,
    "longitude": 103.82144306908805
  },
  {
    "line": "CC",
    "station_number": 24,
    "station_name": "KENT RIDGE MRT STATION",
    "latitude": 1.2934960617448048,
    "longitude": 103.78442746062646
  },
  {
    "line": "NE",
    "station_number": 17,
    "station_name": "PUNGGOL MRT STATION",
    "latitude": 1.4045467277879482,
    "longitude": 103.90207263840693
  },
  {
    "line": "EW",
    "station_number": 15,
    "station_name": "TANJONG PAGAR MRT STATION",
    "latitude": 1.276521247,
    "longitude": 103.84586422934721
  },
  {
    "line": "CC",
    "station_number": 23,
    "station_name": "ONE-NORTH MRT STATION",
    "latitude": 1.299759878591986,
    "longitude": 103.78745750783105
  },
  {
    "line": "CC",
    "station_number": 6,
    "station_name": "STADIUM MRT STATION",
    "latitude": 1.302840629633224,
    "longitude": 103.8753503351786
  },
  {
    "line": "EW",
    "station_number": 12,
    "station_name": "BUGIS MRT STATION",
    "latitude": 1.3004650763152503,
    "longitude": 103.85570641401658
  },
  {
    "line": "DT",
    "station_number": 14,
    "station_name": "BUGIS MRT STATION",
    "latitude": 1.3004650763152503,
    "longitude": 103.85570641401658
  },
  {
    "line": "NS",
    "station_number": 23,
    "station_name": "SOMERSET MRT STATION",
    "latitude": 1.3002600550654384,
    "longitude": 103.83907516234385
  },
  {
    "line": "NS",
    "station_number": 22,
    "station_name": "ORCHARD MRT STATION",
    "latitude": 1.3039810124368771,
    "longitude": 103.83224145206746
  },
  {
    "line": "TE",
    "station_number": 14,
    "station_name": "ORCHARD MRT STATION",
    "latitude": 1.3039810124368771,
    "longitude": 103.83224145206746
  },
  {
    "line": "DT",
    "station_number": 22,
    "station_name": "JALAN BESAR MRT STATION",
    "latitude": 1.3054036422232524,
    "longitude": 103.85547701633922
  },
  {
    "line": "DT",
    "station_number": 16,
    "station_name": "BAYFRONT MRT STATION",
    "latitude": 1.2818737884915377,
    "longitude": 103.8590797651323
  },
  {
    "line": "CE",
    "station_number": 1,
    "station_name": "BAYFRONT MRT STATION",
    "latitude": 1.2818737884915377,
    "longitude": 103.8590797651323
  },
  {
    "line": "NE",
    "station_number": 16,
    "station_name": "SENGKANG MRT STATION",
    "latitude": 1.3916946260989878,
    "longitude": 103.8954846941603
  },
  {
    "line": "CC",
    "station_number": 18,
    "station_name": "BUKIT BROWN MRT STATION",
    "latitude": 1.3337288823214424,
    "longitude": 103.83068955013653
  },
  {
    "line": "CC",
    "station_number": 7,
    "station_name": "MOUNTBATTEN MRT STATION",
    "latitude": 1.3062019048312363,
    "longitude": 103.8825280808098
  },
  {
    "line": "NE",
    "station_number": 13,
    "station_name": "KOVAN MRT STATION",
    "latitude": 1.3601791711791509,
    "longitude": 103.88506485633619
  },
  {
    "line": "DT",
    "station_number": 20,
    "station_name": "FORT CANNING MRT STATION",
    "latitude": 1.2924789279174818,
    "longitude": 103.84432826960945
  },
  {
    "line": "CC",
    "station_number": 20,
    "station_name": "FARRER ROAD MRT STATION",
    "latitude": 1.3175106118957656,
    "longitude": 103.80758610574625
  },
  {
    "line": "DT",
    "station_number": 17,
    "station_name": "DOWNTOWN MRT STATION",
    "latitude": 1.279446190378722,
    "longitude": 103.85284044403936
  },
  {
    "line": "CC",
    "station_number": 3,
    "station_name": "ESPLANADE MRT STATION",
    "latitude": 1.2933216076112375,
    "longitude": 103.8555041055266
  },
  {
    "line": "CC",
    "station_number": 5,
    "station_name": "NICOLL HIGHWAY MRT STATION",
    "latitude": 1.299766835267978,
    "longitude": 103.86363701849602
  },
  {
    "line": "CC",
    "station_number": 17,
    "station_name": "CALDECOTT MRT STATION",
    "latitude": 1.3376745080443386,
    "longitude": 103.83952982076379
  },
  {
    "line": "TE",
    "station_number": 9,
    "station_name": "CALDECOTT MRT STATION",
    "latitude": 1.3376745080443386,
    "longitude": 103.83952982076379
  },
  {
    "line": "NS",
    "station_number": 27,
    "station_name": "MARINA BAY MRT STATION",
    "latitude": 1.2764273547506024,
    "longitude": 103.85459777754325
  },
  {
    "line": "TE",
    "station_number": 20,
    "station_name": "MARINA BAY MRT STATION",
    "latitude": 1.2764273547506024,
    "longitude": 103.85459777754325
  },
  {
    "line": "CE",
    "station_number": 2,
    "station_name": "MARINA BAY MRT STATION",
    "latitude": 1.2764273547506024,
    "longitude": 103.85459777754325
  },
  {
    "line": "CC",
    "station_number": 27,
    "station_name": "LABRADOR PARK MRT STATION",
    "latitude": 1.2723327315964736,
    "longitude": 103.80293962041964
  },
  {
    "line": "NE",
    "station_number": 4,
    "station_name": "CHINATOWN MRT STATION",
    "latitude": 1.2843595782329786,
    "longitude": 103.84342677594374
  },
  {
    "line": "DT",
    "station_number": 19,
    "station_name": "CHINATOWN MRT STATION",
    "latitude": 1.2843595782329786,
    "longitude": 103.84342677594374
  },
  {
    "line": "DT",
    "station_number": 8,
    "station_name": "TAN KAH KEE MRT STATION",
    "latitude": 1.3258832089224446,
    "longitude": 103.80732220761213
  },
  {
    "line": "EW",
    "station_number": 17,
    "station_name": "TIONG BAHRU MRT STATION",
    "latitude": 1.286193393,
    "longitude": 103.82701943092377
  },
  {
    "line": "DT",
    "station_number": 3,
    "station_name": "HILLVIEW MRT STATION",
    "latitude": 1.3623448685278603,
    "longitude": 103.76741825445647
  },
  {
    "line": "DT",
    "station_number": 6,
    "station_name": "KING ALBERT PARK MRT STATION",
    "latitude": 1.3356651207597656,
    "longitude": 103.78380665887346
  },
  {
    "line": "DT",
    "station_number": 25,
    "station_name": "MATTAR MRT STATION",
    "latitude": 1.3268767147126137,
    "longitude": 103.88324750917995
  },
  {
    "line": "DT",
    "station_number": 27,
    "station_name": "UBI MRT STATION",
    "latitude": 1.329956825703842,
    "longitude": 103.8992525249772
  },
  {
    "line": "DT",
    "station_number": 5,
    "station_name": "BEAUTY WORLD MRT STATION",
    "latitude": 1.341223176,
    "longitude": 103.77579428529484
  },
  {
    "line": "DT",
    "station_number": 28,
    "station_name": "KAKI BUKIT MRT STATION",
    "latitude": 1.334967301564287,
    "longitude": 103.90845973446443
  },
  {
    "line": "DT",
    "station_number": 29,
    "station_name": "BEDOK NORTH MRT STATION",
    "latitude": 1.3347421167583993,
    "longitude": 103.91797832977343
  },
  {
    "line": "NS",
    "station_number": 24,
    "station_name": "DHOBY GHAUT MRT STATION",
    "latitude": 1.2987013066295312,
    "longitude": 103.84611515467623
  },
  {
    "line": "NE",
    "station_number": 6,
    "station_name": "DHOBY GHAUT MRT STATION",
    "latitude": 1.2987013066295312,
    "longitude": 103.84611515467623
  },
  {
    "line": "CC",
    "station_number": 1,
    "station_name": "DHOBY GHAUT MRT STATION",
    "latitude": 1.2987013066295312,
    "longitude": 103.84611515467623
  },
  {
    "line": "NE",
    "station_number": 11,
    "station_name": "WOODLEIGH MRT STATION",
    "latitude": 1.339190045525152,
    "longitude": 103.87081830937498
  },
  {
    "line": "NS",
    "station_number": 20,
    "station_name": "NOVENA MRT STATION",
    "latitude": 1.3204407908478988,
    "longitude": 103.84382561881533
  },
  {
    "line": "NE",
    "station_number": 12,
    "station_name": "SERANGOON MRT STATION",
    "latitude": 1.3497078753792613,
    "longitude": 103.87357484685835
  },
  {
    "line": "CC",
    "station_number": 13,
    "station_name": "SERANGOON MRT STATION",
    "latitude": 1.3497078753792613,
    "longitude": 103.87357484685835
  },
  {
    "line": "DT",
    "station_number": 30,
    "station_name": "BEDOK RESERVOIR MRT STATION",
    "latitude": 1.336607829810492,
    "longitude": 103.93223462362464
  },
  {
    "line": "NS",
    "station_number": 28,
    "station_name": "MARINA SOUTH PIER MRT STATION",
    "latitude": 1.2713367113291696,
    "longitude": 103.86285976963737
  },
  {
    "line": "NE",
    "station_number": 8,
    "station_name": "FARRER PARK MRT STATION",
    "latitude": 1.3123598402121364,
    "longitude": 103.8541771415314
  },
  {
    "line": "CC",
    "station_number": 12,
    "station_name": "BARTLEY MRT STATION",
    "latitude": 1.342828337737579,
    "longitude": 103.87975890622788
  },
  {
    "line": "CC",
    "station_number": 8,
    "station_name": "DAKOTA MRT STATION",
    "latitude": 1.3083826392669968,
    "longitude": 103.88866260393172
  },
  {
    "line": "CC",
    "station_number": 26,
    "station_name": "PASIR PANJANG MRT STATION",
    "latitude": 1.2762135226853348,
    "longitude": 103.79135031315437
  },
  {
    "line": "NE",
    "station_number": 5,
    "station_name": "CLARKE QUAY MRT STATION",
    "latitude": 1.2883860242011411,
    "longitude": 103.84655520929513
  },
  {
    "line": "NS",
    "station_number": 17,
    "station_name": "BISHAN MRT STATION",
    "latitude": 1.3508389876938425,
    "longitude": 103.84814396447456
  },
  {
    "line": "CC",
    "station_number": 15,
    "station_name": "BISHAN MRT STATION",
    "latitude": 1.3508389876938425,
    "longitude": 103.84814396447456
  },
  {
    "line": "CC",
    "station_number": 16,
    "station_name": "MARYMOUNT MRT STATION",
    "latitude": 1.3487072630182246,
    "longitude": 103.83942313256962
  },
  {
    "line": "CC",
    "station_number": 25,
    "station_name": "HAW PAR VILLA MRT STATION",
    "latitude": 1.282542156642901,
    "longitude": 103.78181045132038
  },
  {
    "line": "CC",
    "station_number": 14,
    "station_name": "LORONG CHUAN MRT STATION",
    "latitude": 1.351612171,
    "longitude": 103.86415193804721
  },
  {
    "line": "EW",
    "station_number": 11,
    "station_name": "LAVENDER MRT STATION",
    "latitude": 1.3073570200955626,
    "longitude": 103.86282920810665
  },
  {
    "line": "CC",
    "station_number": 11,
    "station_name": "TAI SENG MRT STATION",
    "latitude": 1.3354333222229142,
    "longitude": 103.88819486115298
  },
  {
    "line": "DT",
    "station_number": 13,
    "station_name": "ROCHOR MRT STATION",
    "latitude": 1.3039164839645871,
    "longitude": 103.85242168070454
  },
  {
    "line": "NE",
    "station_number": 7,
    "station_name": "LITTLE INDIA MRT STATION",
    "latitude": 1.3068000253123342,
    "longitude": 103.84964696657241
  },
  {
    "line": "DT",
    "station_number": 12,
    "station_name": "LITTLE INDIA MRT STATION",
    "latitude": 1.3068000253123342,
    "longitude": 103.84964696657241
  },
  {
    "line": "DT",
    "station_number": 10,
    "station_name": "STEVENS MRT STATION",
    "latitude": 1.3200655570067297,
    "longitude": 103.82602440224379
  },
  {
    "line": "TE",
    "station_number": 11,
    "station_name": "STEVENS MRT STATION",
    "latitude": 1.3200655570067297,
    "longitude": 103.82602440224379
  },
  {
    "line": "DT",
    "station_number": 1,
    "station_name": "BUKIT PANJANG MRT STATION",
    "latitude": 1.379002116717668,
    "longitude": 103.76153511473294
  },
  {
    "line": "DT",
    "station_number": 2,
    "station_name": "CASHEW MRT STATION",
    "latitude": 1.3693698310643436,
    "longitude": 103.76469442231075
  },
  {
    "line": "DT",
    "station_number": 7,
    "station_name": "SIXTH AVENUE MRT STATION",
    "latitude": 1.330786387363983,
    "longitude": 103.79724631666106
  },
  {
    "line": "NS",
    "station_number": 19,
    "station_name": "TOA PAYOH MRT STATION",
    "latitude": 1.332628987123201,
    "longitude": 103.84750176434021
  },
  {
    "line": "TE",
    "station_number": 3,
    "station_name": "WOODLANDS SOUTH MRT STATION",
    "latitude": 1.4272599787112468,
    "longitude": 103.79385089243779
  },
  {
    "line": "NE",
    "station_number": 10,
    "station_name": "POTONG PASIR MRT STATION",
    "latitude": 1.3313795246192943,
    "longitude": 103.86905566527228
  },
  {
    "line": "NE",
    "station_number": 14,
    "station_name": "HOUGANG MRT STATION",
    "latitude": 1.3712922916785375,
    "longitude": 103.89238051891172
  },
  {
    "line": "NE",
    "station_number": 9,
    "station_name": "BOON KENG MRT STATION",
    "latitude": 1.3193957060230523,
    "longitude": 103.8616865018698
  },
  {
    "line": "DT",
    "station_number": 34,
    "station_name": "UPPER CHANGI MRT STATION",
    "latitude": 1.3417374838931966,
    "longitude": 103.96147178867841
  },
  {
    "line": "NS",
    "station_number": 18,
    "station_name": "BRADDELL MRT STATION",
    "latitude": 1.340471684451099,
    "longitude": 103.84679784541233
  },
  {
    "line": "NE",
    "station_number": 15,
    "station_name": "BUANGKOK MRT STATION",
    "latitude": 1.382877858147225,
    "longitude": 103.8931215647853
  },
  {
    "line": "CC",
    "station_number": 4,
    "station_name": "PROMENADE MRT STATION",
    "latitude": 1.2932180514893272,
    "longitude": 103.86099915588701
  },
  {
    "line": "DT",
    "station_number": 15,
    "station_name": "PROMENADE MRT STATION",
    "latitude": 1.2932180514893272,
    "longitude": 103.86099915588701
  },
  {
    "line": "CC",
    "station_number": 19,
    "station_name": "BOTANIC GARDENS MRT STATION",
    "latitude": 1.3221101929847647,
    "longitude": 103.81498275034396
  },
  {
    "line": "DT",
    "station_number": 9,
    "station_name": "BOTANIC GARDENS MRT STATION",
    "latitude": 1.3221101929847647,
    "longitude": 103.81498275034396
  },
  {
    "line": "EW",
    "station_number": 14,
    "station_name": "RAFFLES PLACE MRT STATION",
    "latitude": 1.2841256105732046,
    "longitude": 103.85146171209111
  },
  {
    "line": "NS",
    "station_number": 26,
    "station_name": "RAFFLES PLACE MRT STATION",
    "latitude": 1.2841256105732046,
    "longitude": 103.85146171209111
  },
  {
    "line": "CC",
    "station_number": 21,
    "station_name": "HOLLAND VILLAGE MRT STATION",
    "latitude": 1.3118347904021326,
    "longitude": 103.79619182386152
  },
  {
    "line": "EW",
    "station_number": 16,
    "station_name": "OUTRAM PARK MRT STATION",
    "latitude": 1.2814049781301369,
    "longitude": 103.8391264975836
  },
  {
    "line": "NE",
    "station_number": 3,
    "station_name": "OUTRAM PARK MRT STATION",
    "latitude": 1.2814049781301369,
    "longitude": 103.8391264975836
  },
  {
    "line": "CC",
    "station_number": 28,
    "station_name": "TELOK BLANGAH MRT STATION",
    "latitude": 1.270753211458579,
    "longitude": 103.80974863683566
  },
  {
    "line": "DT",
    "station_number": 18,
    "station_name": "TELOK AYER MRT STATION",
    "latitude": 1.2822895361922544,
    "longitude": 103.84830280619272
  },
  {
    "line": "NS",
    "station_number": 21,
    "station_name": "NEWTON MRT STATION",
    "latitude": 1.3123200995556394,
    "longitude": 103.83798529963273
  },
  {
    "line": "DT",
    "station_number": 11,
    "station_name": "NEWTON MRT STATION",
    "latitude": 1.3123200995556394,
    "longitude": 103.83798529963273
  },
  {
    "line": "NS",
    "station_number": 12,
    "station_name": "CANBERRA MRT STATION",
    "latitude": 1.443136699719395,
    "longitude": 103.82971180026023
  },
  {
    "line": "TE",
    "station_number": 1,
    "station_name": "WOODLANDS NORTH MRT STATION",
    "latitude": 1.448292499870659,
    "longitude": 103.78569270000877
  },
  {
    "line": "DT",
    "station_number": 4,
    "station_name": "HUME MRT STATION",
    "latitude": 1.3545176075254892,
    "longitude": 103.76909924150804
  },
  {
    "line": "TE",
    "station_number": 4,
    "station_name": "SPRINGLEAF MRT STATION",
    "latitude": 1.3981608610259548,
    "longitude": 103.81808184986265
  },
  {
    "line": "TE",
    "station_number": 5,
    "station_name": "LENTOR MRT STATION",
    "latitude": 1.3850619469262857,
    "longitude": 103.83646948691421
  },
  {
    "line": "TE",
    "station_number": 6,
    "station_name": "MAYFLOWER MRT STATION",
    "latitude": 1.3720866386742012,
    "longitude": 103.83682393201485
  },
  {
    "line": "TE",
    "station_number": 7,
    "station_name": "BRIGHT HILL MRT STATION",
    "latitude": 1.3633080980958083,
    "longitude": 103.8329359578363
  },
  {
    "line": "TE",
    "station_number": 8,
    "station_name": "UPPER THOMSON MRT STATION",
    "latitude": 1.3544118531277336,
    "longitude": 103.83293816886057
  },
  {
    "line": "TE",
    "station_number": 12,
    "station_name": "NAPIER",
    "latitude": 1.3066,
    "longitude": 103.8188
  },
  {
    "line": "TE",
    "station_number": 13,
    "station_name": "ORCHARD BOULEVARD",
    "latitude": 1.3039,
    "longitude": 103.8239
  },
  {
    "line": "TE",
    "station_number": 15,
    "station_name": "GREAT WORLD",
    "latitude": 1.2936,
    "longitude": 103.8318
  },
  {
    "line": "TE",
    "station_number": 16,
    "station_name": "HAVELOCK",
    "latitude": 1.2886,
    "longitude": 103.8339
  },
  {
    "line": "TE",
    "station_number": 17,
    "station_name": "OUTRAM PARK",
    "latitude": 1.2816,
    "longitude": 103.8404
  },
  {
    "line": "TE",
    "station_number": 18,
    "station_name": "MAXWELL",
    "latitude": 1.2778,
    "longitude": 103.8445
  },
  {
    "line": "TE",
    "station_number": 19,
    "station_name": "SHENTON WAY",
    "latitude": 1.275,
    "longitude": 103.8486
  },
  {
    "line": "TE",
    "station_number": 20,
    "station_name": "MARINA BAY",
    "latitude": 1.2764,
    "longitude": 103.854
  },
  {
    "line": "TE",
    "station_number": 22,
    "station_name": "GARDENS BY THE BAY",
    "latitude": 1.2811,
    "longitude": 103.867
  },
  {
    "line": "TE",
    "station_number": 23,
    "station_name": "TANJONG RHU",
    "latitude": 1.2932,
    "longitude": 103.8797
  },
  {
    "line": "TE",
    "station_number": 24,
    "station_name": "KATONG PARK",
    "latitude": 1.2959,
    "longitude": 103.8876
  },
  {
    "line": "TE",
    "station_number": 25,
    "station_name": "TANJONG KATONG",
    "latitude": 1.3006,
    "longitude": 103.8972
  },
  {
    "line": "TE",
    "station_number": 26,
    "station_name": "MARINE PARADE",
    "latitude": 1.3027,
    "longitude": 103.9054
  },
  {
    "line": "TE",
    "station_number": 27,
    "station_name": "MARINE TERRACE",
    "latitude": 1.3053,
    "longitude": 103.9129
  },
  {
    "line": "TE",
    "station_number": 28,
    "station_name": "SIGLAP",
    "latitude": 1.3093,
    "longitude": 103.9217
  },
  {
    "line": "TE",
    "station_number": 29,
    "station_name": "BAYSHORE",
    "latitude": 1.3126,
    "longitude": 103.9319
  },
  [
  {
    "station_code": "TE35",
    "station_name": "Tanah Merah",
    "latitude": 1.3275,
    "longitude": 103.9464
  },
  {
    "station_code": "TE34",
    "station_name": "Expo",
    "latitude": 1.334,
    "longitude": 103.9613
  },
  {
    "station_code": "TE33",
    "station_name": "Changi Airport",
    "latitude": 1.3573,
    "longitude": 103.9886
  },
  {
    "station_code": "TE32",
    "station_name": "Changi Airport T5",
    "latitude": 1.3244444,
    "longitude": 103.9927778
  },
  {
    "station_code": "CR1",
    "station_name": "Changi Airport T5",
    "latitude": 1.3244444,
    "longitude": 103.9927778
  },
  {
    "station_code": "CR2",
    "station_name": "Aviation Park",
    "latitude": 1.37017,
    "longitude": 104.00352
  },
  {
    "station_code": "CR3",
    "station_name": "Loyang",
    "latitude": 1.36,
    "longitude": 104.006
  },
  {
    "station_code": "CR4",
    "station_name": "Pasir Ris East",
    "latitude": 1.373,
    "longitude": 103.951
  },
  {
    "station_code": "CR5",
    "station_name": "Pasir Ris",
    "latitude": 1.3721,
    "longitude": 103.9493
  },
  {
    "station_code": "TE30",
    "station_name": "Bedok South",
    "latitude": 1.3195,
    "longitude": 103.937
  },
  {
    "station_code": "TE31",
    "station_name": "Sungei Bedok",
    "latitude": 1.3185,
    "longitude": 103.93
  },
  {
    "station_code": "TE32X",
    "station_name": "Xilin",
    "latitude": 1.332,
    "longitude": 103.9485
  }
]
]